<?xml version="1.0" encoding="utf-8"?>
<gpx xmlns="http://www.topografix.com/GPX/1/1" version="1.1" creator="https://mapy.cz/">
	<wpt lat="48.877472" lon="16.675580">
		<ele>188.453918</ele>
		<name>Archeopark Pavlov</name>
	</wpt>
	<wpt lat="48.874212" lon="16.673327">
		<ele>228.000000</ele>
		<name>Pavlov</name>
	</wpt>
	<wpt lat="48.876117" lon="16.662019">
		<ele>426.953308</ele>
		<name>hrad Děvčičky</name>
	</wpt>
	<wpt lat="48.867804" lon="16.651044">
		<ele>519.000000</ele>
		<name>Děvín - výhľad</name>
	</wpt>
	<wpt lat="48.869243" lon="16.649853">
		<ele>543.161438</ele>
		<name>Děvín - vysielač</name>
	</wpt>
	<wpt lat="48.845526" lon="16.640207">
		<ele>417.098114</ele>
		<name>Sirotčí hrádek</name>
	</wpt>
	<wpt lat="48.839256" lon="16.637579">
		<ele>449.882721</ele>
		<name>Tabulová hora</name>
	</wpt>
	<wpt lat="48.836608" lon="16.625552">
		<ele>241.902939</ele>
		<name>Bavory</name>
	</wpt>
	<wpt lat="48.829870" lon="16.613235">
		<ele>218.920425</ele>
		<name>Bavory autobus</name>
	</wpt>
</gpx>

